[{"waypoint": 0.5332242194599351, "street": "A115", "longitude": 13.19257786, "latitude": 52.43386833}, {"waypoint": 0.5234576652441408, "street": "A115", "longitude": 13.1927467, "latitude": 52.43381256}, {"waypoint": 0.16758217691700947, "street": "Clayallee", "longitude": 13.26130077, "latitude": 52.43664151}, {"waypoint": 0.2759764935821696, "street": "Berliner Stra\u00dfe", "longitude": 13.26310552, "latitude": 52.43511242}, {"waypoint": 0.3952570727152901, "street": "Teltower Damm", "longitude": 13.25988057, "latitude": 52.43374142}, {"waypoint": 0.1032783235521062, "street": "Gro\u00dfbeerenstra\u00dfe", "longitude": 13.37926717, "latitude": 52.43614059}, {"waypoint": 0.5988908619813438, "street": "Marienfelder Allee", "longitude": 13.36441331, "latitude": 52.41487617}, {"waypoint": 0.37315211028431633, "street": "Marienfelder Allee", "longitude": 13.35974087, "latitude": 52.40959836}, {"waypoint": 0.5633520185589744, "street": "Mariendorfer Damm", "longitude": 13.4000522, "latitude": 52.41615714}, {"waypoint": 0.41430258706064776, "street": "Lichtenrader Damm", "longitude": 13.40209827, "latitude": 52.41316159}, {"waypoint": 0.6650811298354243, "street": "Mariendorfer Damm", "longitude": 13.38824115, "latitude": 52.43746263}, {"waypoint": 0.35942645875556894, "street": "Neuk\u00f6llner Stra\u00dfe", "longitude": 13.48488437, "latitude": 52.42469401}, {"waypoint": 0.6109610540741366, "street": "Buschkrugallee", "longitude": 13.45291236, "latitude": 52.4510216}, {"waypoint": 0.29172942625553483, "street": "Gradestra\u00dfe", "longitude": 13.41975725, "latitude": 52.45218494}, {"waypoint": 0.39272473490121734, "street": "Gradestra\u00dfe", "longitude": 13.41966228, "latitude": 52.45207024}, {"waypoint": 0.7507885009931919, "street": "Roedernallee", "longitude": 13.34798158, "latitude": 52.57670433}, {"waypoint": 0.3274018815745136, "street": "Roedernallee", "longitude": 13.34778595, "latitude": 52.57754524}, {"waypoint": 0.0, "street": "Prenzlauer Promenade", "longitude": 13.42952123, "latitude": 52.57461381}, {"waypoint": 0.21106301952918372, "street": "Adlergestell", "longitude": 13.55284911, "latitude": 52.42771718}, {"waypoint": 0.1219231149536977, "street": "Seestra\u00dfe", "longitude": 13.35380019, "latitude": 52.55159764}, {"waypoint": 0.44077724245967637, "street": "Seestra\u00dfe", "longitude": 13.3632052, "latitude": 52.55609639}, {"waypoint": 0.2486879694115696, "street": "M\u00fcllerstra\u00dfe", "longitude": 13.35147834, "latitude": 52.55081273}, {"waypoint": 0.2640250692691224, "street": "M\u00fcllerstra\u00dfe", "longitude": 13.34717928, "latitude": 52.55311147}, {"waypoint": 0.4031399376219796, "street": "Markstra\u00dfe", "longitude": 13.36508315, "latitude": 52.55906387}, {"waypoint": 0.32476768738941797, "street": "Berliner Stra\u00dfe", "longitude": 13.41441319, "latitude": 52.55508704}, {"waypoint": 0.08273272051129145, "street": "Malchower Chaussee", "longitude": 13.47931197, "latitude": 52.56975219}, {"waypoint": 0.11920345577519635, "street": "Malchower Chaussee", "longitude": 13.47923485, "latitude": 52.56965869}, {"waypoint": 0.18564858607343535, "street": "Landsberger Allee", "longitude": 13.47872507, "latitude": 52.53312849}, {"waypoint": 0.14731409756282238, "street": "Landsberger Allee", "longitude": 13.47888359, "latitude": 52.53327579}, {"waypoint": 0.45503862266114864, "street": "Storkower Stra\u00dfe", "longitude": 13.45070114, "latitude": 52.53608824}, {"waypoint": 0.4624300163153317, "street": "Hauptstra\u00dfe", "longitude": 13.4789053, "latitude": 52.49977749}, {"waypoint": 0.3056521811302023, "street": "Falkenseer Damm", "longitude": 13.20068075, "latitude": 52.54152097}, {"waypoint": 0.08865398380699435, "street": "Am Treptower Park", "longitude": 13.46907899, "latitude": 52.48399008}, {"waypoint": 0.1447405397400265, "street": "Puschkinallee", "longitude": 13.4632461, "latitude": 52.4916709}, {"waypoint": 0.11377918178034785, "street": "Bornholmer Stra\u00dfe", "longitude": 13.41219397, "latitude": 52.55376205}, {"waypoint": 0.2954811411956514, "street": "Ollenhauer Stra\u00dfe", "longitude": 13.32908423, "latitude": 52.56687425}, {"waypoint": 0.33424157174270075, "street": "Ollenhauer Stra\u00dfe", "longitude": 13.32917518, "latitude": 52.56719919}, {"waypoint": 0.24311888746154744, "street": "Hardenbergstra\u00dfe", "longitude": 13.32383634, "latitude": 52.51056827}, {"waypoint": 0.20176215416538446, "street": "Hardenbergstra\u00dfe", "longitude": 13.32410614, "latitude": 52.51057905}, {"waypoint": 0.16367336949014127, "street": "Stra\u00dfe des 17. Juni", "longitude": 13.34300389, "latitude": 52.51409914}, {"waypoint": 0.17458016953305067, "street": "Stra\u00dfe des 17. Juni", "longitude": 13.34206363, "latitude": 52.5138908}, {"waypoint": 0.06064729884751572, "street": "Am Treptower Park", "longitude": 13.46903234, "latitude": 52.48396189}, {"waypoint": 0.40062397507265207, "street": "Marienfelder Allee", "longitude": 13.36005495, "latitude": 52.41012684}, {"waypoint": 0.7114897274048466, "street": "Am Juliusturm", "longitude": 13.22553109, "latitude": 52.53757139}, {"waypoint": 0.6036905141732066, "street": "Am Juliusturm", "longitude": 13.22540393, "latitude": 52.53743246}, {"waypoint": 0.307871782251071, "street": "Siemensdamm", "longitude": 13.27843124, "latitude": 52.53473797}, {"waypoint": 0.2371124191470562, "street": "Hohenzollerndamm", "longitude": 13.29770528, "latitude": 52.48629779}, {"waypoint": 0.4878217318379345, "street": "Hohenzollerndamm", "longitude": 13.2918667, "latitude": 52.48328162}, {"waypoint": 0.33656105782565726, "street": "Ringstra\u00dfe", "longitude": 13.37866395, "latitude": 52.44210104}, {"waypoint": 0.29895829247452227, "street": "Buckower Chaussee", "longitude": 13.39848337, "latitude": 52.41387521}, {"waypoint": 0.0, "street": "Marienfelder Chaussee", "longitude": 13.40445676, "latitude": 52.41538053}, {"waypoint": 0.091804632594807, "street": "Britzer Damm", "longitude": 13.43571359, "latitude": 52.44813757}, {"waypoint": 0.29077410867573067, "street": "M\u00fcggelheimer Damm", "longitude": 13.59532834, "latitude": 52.43750906}, {"waypoint": 0.21975161809380206, "street": "M\u00fcggelheimer Damm", "longitude": 13.59514986, "latitude": 52.43753879}, {"waypoint": 0.1634077437677013, "street": "Lindenstra\u00dfe", "longitude": 13.56893846, "latitude": 52.45321939}, {"waypoint": 0.06335323283162697, "street": "Edisonstra\u00dfe", "longitude": 13.51312556, "latitude": 52.46660702}, {"waypoint": 0.5119729405596838, "street": "Treskowallee", "longitude": 13.52192949, "latitude": 52.47572287}, {"waypoint": 0.3762174452041028, "street": "Rhinstra\u00dfe", "longitude": 13.51882736, "latitude": 52.51228306}, {"waypoint": 0.42553635134068807, "street": "Rhinstra\u00dfe", "longitude": 13.51915268, "latitude": 52.5318707}, {"waypoint": 0.11792319384265823, "street": "Kurf\u00fcrstendamm", "longitude": 13.28815956, "latitude": 52.49630857}, {"waypoint": 0.5167294719325393, "street": "Lietzenburger Str", "longitude": 13.31920405, "latitude": 52.4996243}, {"waypoint": 0.151409432366574, "street": "Lietzenburger Str", "longitude": 13.32068505, "latitude": 52.49979843}, {"waypoint": 0.8166728723576919, "street": "Hauptstra\u00dfe", "longitude": 13.35858176, "latitude": 52.48869456}, {"waypoint": 0.4975930217283105, "street": "Hauptstra\u00dfe", "longitude": 13.35867996, "latitude": 52.48856087}, {"waypoint": 0.29477010331804315, "street": "Goebenstra\u00dfe", "longitude": 13.36345674, "latitude": 52.49405499}, {"waypoint": 0.14328541348941723, "street": "Goebenstra\u00dfe", "longitude": 13.36320149, "latitude": 52.49392407}, {"waypoint": 0.3002618083968839, "street": "Hallesches Ufer", "longitude": 13.38817933, "latitude": 52.49825969}, {"waypoint": 0.1380773967098394, "street": "Tempelhofer Ufer", "longitude": 13.38621035, "latitude": 52.49826234}, {"waypoint": 0.7010695616461106, "street": "Reichpietschufer", "longitude": 13.37126345, "latitude": 52.50544277}, {"waypoint": 0.07462438820941267, "street": "Sch\u00f6neberger Ufer", "longitude": 13.36333619, "latitude": 52.505503}, {"waypoint": 0.6324075886452982, "street": "Klingelh\u00f6fer Stra\u00dfe", "longitude": 13.35184161, "latitude": 52.50813441}, {"waypoint": 0.5484287593535419, "street": "Spreeweg", "longitude": 13.35315131, "latitude": 52.51632946}, {"waypoint": 0.14945380883628873, "street": "Spreeweg", "longitude": 13.35312673, "latitude": 52.5161646}, {"waypoint": 0.18723317879121185, "street": "Saatwinkler Damm", "longitude": 13.31654198, "latitude": 52.54734541}, {"waypoint": 0.2445865258851172, "street": "Saatwinkler Damm", "longitude": 13.31673397, "latitude": 52.54736412}, {"waypoint": 0.329651748990288, "street": "Danziger Stra\u00dfe", "longitude": 13.42662017, "latitude": 52.53825763}, {"waypoint": 0.5087257313501384, "street": "Romain-Rolland-Stra\u00dfe", "longitude": 13.44831569, "latitude": 52.56468844}, {"waypoint": 0.1911370317814915, "street": "Petersburger Stra\u00dfe", "longitude": 13.44905176, "latitude": 52.52468009}, {"waypoint": 0.3308325549967082, "street": "Landsberger Allee", "longitude": 13.44094111, "latitude": 52.52429788}, {"waypoint": 0.7948414140577457, "street": "Antonienstra\u00dfe", "longitude": 13.31246737, "latitude": 52.57307371}, {"waypoint": 0.20652158255393496, "street": "Tempelhofer Damm", "longitude": 13.38587442, "latitude": 52.47682214}, {"waypoint": 0.4610880481892163, "street": "Tempelhofer Damm", "longitude": 13.38577887, "latitude": 52.48007294}, {"waypoint": 0.8349960768568134, "street": "Sonnenallee", "longitude": 13.45137428, "latitude": 52.47605237}, {"waypoint": 1.0, "street": "Sonnenallee", "longitude": 13.45163195, "latitude": 52.47606628}, {"waypoint": 0.171713912717388, "street": "Torstra\u00dfe", "longitude": 13.39157593, "latitude": 52.52809909}, {"waypoint": 0.3778182975054831, "street": "Torstra\u00dfe", "longitude": 13.39407236, "latitude": 52.52856521}, {"waypoint": 0.33268474586956454, "street": "Leipziger Stra\u00dfe", "longitude": 13.4001967, "latitude": 52.5112039}, {"waypoint": 0.1197785166279077, "street": "Leipziger Stra\u00dfe", "longitude": 13.40004359, "latitude": 52.51105832}, {"waypoint": 0.3756398772469259, "street": "Hansastra\u00dfe", "longitude": 13.49780177, "latitude": 52.56058538}, {"waypoint": 0.24789594197645826, "street": "Jaff\u00e9stra\u00dfe", "longitude": 13.26216698, "latitude": 52.50743811}, {"waypoint": 0.4731057393660278, "street": "Jaff\u00e9stra\u00dfe", "longitude": 13.26860923, "latitude": 52.49972987}, {"waypoint": 0.48215479026010727, "street": "Bahnhofstra\u00dfe", "longitude": 13.57572448, "latitude": 52.45412319}, {"waypoint": 0.31686494542317273, "street": "Bahnhofstra\u00dfe", "longitude": 13.57586572, "latitude": 52.45416683}, {"waypoint": 0.6127711879262419, "street": "Greifswalder Stra\u00dfe", "longitude": 13.42546565, "latitude": 52.52985745}, {"waypoint": 0.21363967830983654, "street": "Karl-Marx-Allee", "longitude": 13.43845389, "latitude": 52.51742982}, {"waypoint": 0.6622463400510203, "street": "F\u00fcrstenbrunner Weg", "longitude": 13.27987593, "latitude": 52.52072021}, {"waypoint": 0.6261152107060469, "street": "Blumberger Damm", "longitude": 13.56759685, "latitude": 52.53662504}, {"waypoint": 0.5484444035183051, "street": "Potsdamer Stra\u00dfe", "longitude": 13.25433876, "latitude": 52.43541924}, {"waypoint": 0.693500624060328, "street": "Koenigsallee", "longitude": 13.26215025, "latitude": 52.48149435}, {"waypoint": 0.31646772787896593, "street": "Koenigsallee", "longitude": 13.26219228, "latitude": 52.48139442}, {"waypoint": 0.11810006605897712, "street": "Hofj\u00e4gerallee", "longitude": 13.35081659, "latitude": 52.51197936}, {"waypoint": 0.28348585562142675, "street": "Ringstra\u00dfe", "longitude": 13.37886481, "latitude": 52.44205735}, {"waypoint": 0.494549687642002, "street": "Klingelh\u00f6fer Stra\u00dfe", "longitude": 13.35162286, "latitude": 52.50823119}, {"waypoint": 0.12317361041477755, "street": "Wei\u00dfenseer Weg", "longitude": 13.47446539, "latitude": 52.53486254}, {"waypoint": 0.39112955837617064, "street": "F\u00fcrstenbrunner Weg", "longitude": 13.27995105, "latitude": 52.52062324}, {"waypoint": 0.823715250291847, "street": "Am Juliusturm", "longitude": 13.22551345, "latitude": 52.53761039}, {"waypoint": 0.21464235223236952, "street": "Siemensdamm", "longitude": 13.27866982, "latitude": 52.53480606}, {"waypoint": 0.0, "street": "Beusselstra\u00dfe", "longitude": 13.32709195, "latitude": 52.53607321}, {"waypoint": 0.3070284702516737, "street": "Beusselstra\u00dfe", "longitude": 13.3274778, "latitude": 52.53608776}, {"waypoint": 0.6806849725865113, "street": "M\u00e4rkische Allee", "longitude": 13.55581247, "latitude": 52.55962242}, {"waypoint": 0.2993070921945178, "street": "M\u00e4rkische Allee", "longitude": 13.5529551, "latitude": 52.55600776}, {"waypoint": 0.38766498413160955, "street": "Otto-Suhr-Allee", "longitude": 13.31697346, "latitude": 52.51404077}, {"waypoint": 0.4381249710981337, "street": "Otto-Suhr-Allee", "longitude": 13.31721746, "latitude": 52.51410663}, {"waypoint": 0.0, "street": "Bundesallee", "longitude": 13.33104097, "latitude": 52.48843966}, {"waypoint": 0.0, "street": "Bundesallee", "longitude": 13.33090982, "latitude": 52.48852827}, {"waypoint": 0.7296237046060142, "street": "Goerzallee", "longitude": 13.30407379, "latitude": 52.42648948}, {"waypoint": 0.45727289722413095, "street": "Goerzallee", "longitude": 13.30412903, "latitude": 52.42658782}, {"waypoint": 0.32934211856532125, "street": "Tegeler Weg", "longitude": 13.29530732, "latitude": 52.53136593}, {"waypoint": 0.539272254423924, "street": "Tegeler Weg", "longitude": 13.29557448, "latitude": 52.53131551}, {"waypoint": 0.46197616367706185, "street": "Stromstra\u00dfe", "longitude": 13.34321619, "latitude": 52.52770386}, {"waypoint": 0.2657802455564322, "street": "Stromstra\u00dfe", "longitude": 13.34333187, "latitude": 52.52759784}, {"waypoint": 0.36822994077421894, "street": "Spandauer Damm", "longitude": 13.26089417, "latitude": 52.52155457}, {"waypoint": 0.6585817180709932, "street": "Spandauer Damm", "longitude": 13.26067151, "latitude": 52.52148393}, {"waypoint": 0.2669185557327879, "street": "Adlergestell", "longitude": 13.52250854, "latitude": 52.44822423}, {"waypoint": 0.373707042967961, "street": "Hohenzollerndamm", "longitude": 13.32933599, "latitude": 52.49527974}, {"waypoint": 0.47094570768678806, "street": "Hohenzollerndamm", "longitude": 13.32806856, "latitude": 52.4948426}, {"waypoint": 0.6155062328943164, "street": "Hallesches Ufer", "longitude": 13.37653367, "latitude": 52.50226895}, {"waypoint": 0.49377344110048094, "street": "Sch\u00f6neberger Ufer", "longitude": 13.3696211, "latitude": 52.5055733}, {"waypoint": 0.9043970999699636, "street": "Von-der-Heydt-Stra\u00dfe", "longitude": 13.3554024, "latitude": 52.50711384}, {"waypoint": 0.35870805894817537, "street": "Lenn\u00e9stra\u00dfe", "longitude": 13.3733365, "latitude": 52.51144335}, {"waypoint": 0.7470007201100963, "street": "Heerstra\u00dfe", "longitude": 13.15663948, "latitude": 52.52133979}, {"waypoint": 0.5720686260668151, "street": "M\u00fcllerstra\u00dfe (Weddingplatz)", "longitude": 13.36999384, "latitude": 52.54032182}, {"waypoint": 0.0, "street": "M\u00fcllerstra\u00dfe (Weddingplatz)", "longitude": 13.36906149, "latitude": 52.54067377}, {"waypoint": 0.4731005050411758, "street": "Stubenrauchstra\u00dfe", "longitude": 13.49658683, "latitude": 52.43259199}, {"waypoint": 0.6829621849793088, "street": "Falkenberger Chaussee", "longitude": 13.5122723, "latitude": 52.56605457}, {"waypoint": 0.6998573501914469, "street": "Kantstra\u00dfe", "longitude": 13.3117845, "latitude": 52.50645595}, {"waypoint": 0.28194858250933624, "street": "Kantstra\u00dfe", "longitude": 13.31156808, "latitude": 52.506355}, {"waypoint": 0.3208860729017421, "street": "Grabbeallee", "longitude": 13.39841485, "latitude": 52.57724622}, {"waypoint": 0.4791627397171554, "street": "Grabbeallee", "longitude": 13.39889111, "latitude": 52.57310721}, {"waypoint": 0.29747256507180053, "street": "Hermannstra\u00dfe", "longitude": 13.43174118, "latitude": 52.46693437}, {"waypoint": 0.179447306428737, "street": "Hermannstra\u00dfe", "longitude": 13.43126876, "latitude": 52.46747659}, {"waypoint": 0.12115543882304437, "street": "Brunnenstra\u00dfe", "longitude": 13.39447189, "latitude": 52.54012442}, {"waypoint": 0.4947551735066836, "street": "Potsdamer Stra\u00dfe", "longitude": 13.36668716, "latitude": 52.50426209}, {"waypoint": 0.3618268642917431, "street": "Potsdamer Stra\u00dfe", "longitude": 13.3666166, "latitude": 52.50401729}, {"waypoint": 0.20605210326251328, "street": "Sch\u00f6neberger Ufer", "longitude": 13.37342706, "latitude": 52.50331881}, {"waypoint": 0.39331825922736396, "street": "Altonaer Stra\u00dfe", "longitude": 13.34656354, "latitude": 52.51593484}, {"waypoint": 0.09607744498240207, "street": "Prinzenallee", "longitude": 13.38465351, "latitude": 52.556345}, {"waypoint": 0.6782349624426132, "street": "Prinzenallee", "longitude": 13.38528412, "latitude": 52.55742884}, {"waypoint": 0.4266824728591299, "street": "Fennstra\u00dfe", "longitude": 13.36507758, "latitude": 52.53957747}, {"waypoint": 0.35495356093375685, "street": "Heinrich-Heine-Stra\u00dfe", "longitude": 13.41525702, "latitude": 52.50937395}, {"waypoint": 0.2428911921354683, "street": "Heinrich-Heine-Stra\u00dfe", "longitude": 13.41543408, "latitude": 52.50971353}, {"waypoint": 0.0, "street": "Prenzlauer Promenade", "longitude": 13.42843082, "latitude": 52.55868034}, {"waypoint": 0.16257474059464394, "street": "Tiergartenstra\u00dfe", "longitude": 13.36888026, "latitude": 52.51072166}, {"waypoint": 0.3166183851297389, "street": "Martin-Luther-Stra\u00dfe", "longitude": 13.34531026, "latitude": 52.49261394}, {"waypoint": 0.517072504778159, "street": "Grunerstra\u00dfe", "longitude": 13.41321009, "latitude": 52.51960155}, {"waypoint": 0.0, "street": "Leipziger Stra\u00dfe", "longitude": 13.38873502, "latitude": 52.51029773}, {"waypoint": 0.12300306790437647, "street": "Leipziger Stra\u00dfe", "longitude": 13.38834798, "latitude": 52.51021537}, {"waypoint": 0.162118273354891, "street": "Wilhelmstra\u00dfe", "longitude": 13.38480042, "latitude": 52.50873959}, {"waypoint": 0.6918840220760757, "street": "Invalidenstra\u00dfe", "longitude": 13.36277811, "latitude": 52.52445577}, {"waypoint": 0.4463019825187984, "street": "Grunerstra\u00dfe", "longitude": 13.41325065, "latitude": 52.51972244}, {"waypoint": 0.17593747194817502, "street": "Wilhelmstra\u00dfe", "longitude": 13.38489405, "latitude": 52.50867253}, {"waypoint": 0.17792256062809286, "street": "Franz\u00f6sische Stra\u00dfe", "longitude": 13.3936766, "latitude": 52.51499741}, {"waypoint": 0.2008901722392854, "street": "Gertraudenstra\u00dfe", "longitude": 13.40371076, "latitude": 52.51253529}, {"waypoint": 0.4110822251712241, "street": "Gertraudenstra\u00dfe", "longitude": 13.40379339, "latitude": 52.51276325}, {"waypoint": 0.0, "street": "Leipziger Stra\u00dfe", "longitude": 13.39348412, "latitude": 52.51075032}, {"waypoint": 0.9150864886145799, "street": "Leipziger Stra\u00dfe", "longitude": 13.39310269, "latitude": 52.51061763}, {"waypoint": 0.10564970146699507, "street": "Kochstra\u00dfe", "longitude": 13.38822273, "latitude": 52.50655142}, {"waypoint": 0.4338413527062501, "street": "Kochstra\u00dfe", "longitude": 13.38890608, "latitude": 52.50663813}, {"waypoint": 0.0, "street": "Silbersteinstra\u00dfe", "longitude": 13.43991863, "latitude": 52.46738234}, {"waypoint": 0.03789781400543068, "street": "Silbersteinstra\u00dfe", "longitude": 13.44016281, "latitude": 52.46737011}, {"waypoint": 0.5347137648213212, "street": "Schildhornstra\u00dfe", "longitude": 13.31754334, "latitude": 52.46389648}, {"waypoint": 0.5380853440630908, "street": "Lindenstra\u00dfe", "longitude": 13.39431594, "latitude": 52.50201271}, {"waypoint": 0.3261752664973648, "street": "Lindenstra\u00dfe", "longitude": 13.39693916, "latitude": 52.50520567}, {"waypoint": 0.18340298584075473, "street": "Stralauer Allee", "longitude": 13.44983083, "latitude": 52.50194777}, {"waypoint": 0.21539765150691362, "street": "Stralauer Allee", "longitude": 13.46090916, "latitude": 52.4985548}, {"waypoint": 0.2507231985399533, "street": "Frankfurter Allee", "longitude": 13.46881619, "latitude": 52.51423249}, {"waypoint": 0.03605708332522116, "street": "Frankfurter Allee", "longitude": 13.46984019, "latitude": 52.51427863}, {"waypoint": 0.4957884104109789, "street": "Schildhornstra\u00dfe", "longitude": 13.31804085, "latitude": 52.46383059}, {"waypoint": 0.36907286944745, "street": "K\u00f6nigin-Elisabeth-Stra\u00dfe", "longitude": 13.28147568, "latitude": 52.51174135}, {"waypoint": 0.3244837817547744, "street": "Paulsborner Stra\u00dfe", "longitude": 13.30588145, "latitude": 52.49785277}, {"waypoint": 0.021360806059733204, "street": "Torstra\u00dfe", "longitude": 13.40732173, "latitude": 52.529035}, {"waypoint": 0.5932421041596402, "street": "Sp\u00e4thstra\u00dfe", "longitude": 13.45775531, "latitude": 52.45361245}, {"waypoint": 0.4471171923700699, "street": "Neuk\u00f6llner Stra\u00dfe", "longitude": 13.4873386, "latitude": 52.42301215}, {"waypoint": 0.2158931208621076, "street": "Potsdamer Stra\u00dfe", "longitude": 13.36094196, "latitude": 52.49275861}, {"waypoint": 0.25829750791606493, "street": "Hauptstra\u00dfe", "longitude": 13.34968427, "latitude": 52.48282483}, {"waypoint": 0.3316514653696337, "street": "Torstra\u00dfe", "longitude": 13.41085059, "latitude": 52.5286484}, {"waypoint": 0.6342222625301099, "street": "Joachimstaler Stra\u00dfe", "longitude": 13.33124488, "latitude": 52.50190765}, {"waypoint": 0.5571665183642182, "street": "Bundesallee", "longitude": 13.33046363, "latitude": 52.49857823}, {"waypoint": 0.0, "street": "Leibnizstra\u00dfe", "longitude": 13.31448025, "latitude": 52.5107973}, {"waypoint": 0.0, "street": "Neue Kantstra\u00dfe", "longitude": 13.28705429, "latitude": 52.50647774}, {"waypoint": 0.04483224911870517, "street": "Neue Kantstra\u00dfe", "longitude": 13.28696166, "latitude": 52.50660915}, {"waypoint": 0.16014551153104664, "street": "Alt-Moabit", "longitude": 13.35540245, "latitude": 52.52369576}, {"waypoint": 0.6741977815248711, "street": "K\u00f6penicker Stra\u00dfe", "longitude": 13.54854903, "latitude": 52.427418}, {"waypoint": 0.22896003112902433, "street": "Karl-Liebknecht-Stra\u00dfe", "longitude": 13.40657904, "latitude": 52.52069638}, {"waypoint": 0.23267614925637203, "street": "Bl\u00fccherstra\u00dfe", "longitude": 13.39198682, "latitude": 52.4958355}, {"waypoint": 0.3527154351723869, "street": "Bl\u00fccherstra\u00dfe", "longitude": 13.3925616, "latitude": 52.49628942}, {"waypoint": 0.1974682675005241, "street": "Gitschiner Stra\u00dfe", "longitude": 13.39249012, "latitude": 52.49809455}, {"waypoint": 0.9673192246686861, "street": "Waterloo-Ufer", "longitude": 13.39348294, "latitude": 52.49739201}, {"waypoint": 0.742833863183491, "street": "Landsberger Allee", "longitude": 13.45495137, "latitude": 52.52852554}, {"waypoint": 0.6380468157669124, "street": "Wisbyer Stra\u00dfe", "longitude": 13.41965097, "latitude": 52.55340292}, {"waypoint": 0.18067783159141054, "street": "Mollstra\u00dfe", "longitude": 13.41883615, "latitude": 52.52588636}, {"waypoint": 0.5198799867946419, "street": "Paulstra\u00dfe", "longitude": 13.35643582, "latitude": 52.52206752}, {"waypoint": 0.08387799498116806, "street": "Alt-Moabit", "longitude": 13.35407473, "latitude": 52.52418392}, {"waypoint": 0.4129135223386943, "street": "Martin-Luther-Stra\u00dfe", "longitude": 13.34483178, "latitude": 52.49169414}, {"waypoint": 0.412589811203646, "street": "Martin-Luther-Stra\u00dfe", "longitude": 13.34621537, "latitude": 52.49935575}, {"waypoint": 0.5271169158382196, "street": "Lietzenburger Stra\u00dfe", "longitude": 13.34523407, "latitude": 52.49993608}, {"waypoint": 0.6859111187819849, "street": "Lietzenburger Stra\u00dfe", "longitude": 13.34442798, "latitude": 52.50034221}, {"waypoint": 0.3316450493095768, "street": "Leibnizstra\u00dfe", "longitude": 13.31468272, "latitude": 52.5105879}, {"waypoint": 0.4053293217178041, "street": "Oberbaumstra\u00dfe", "longitude": 13.44342765, "latitude": 52.50081566}, {"waypoint": 0.4934494875084933, "street": "Oberbaumstra\u00dfe", "longitude": 13.44361973, "latitude": 52.50108644}, {"waypoint": 0.5145771098714853, "street": "Stubenrauchstra\u00dfe", "longitude": 13.49979639, "latitude": 52.43453385}, {"waypoint": 0.4525310388834977, "street": "Stubenrauchstra\u00dfe", "longitude": 13.49917858, "latitude": 52.4347094}, {"waypoint": 0.20504217766437452, "street": "Neuk\u00f6llner Stra\u00dfe", "longitude": 13.48422579, "latitude": 52.42476978}, {"waypoint": 0.6705695815927438, "street": "Sp\u00e4thstra\u00dfe", "longitude": 13.45853732, "latitude": 52.45357593}, {"waypoint": 0.5865008593478223, "street": "Stubenrauchstra\u00dfe", "longitude": 13.49917858, "latitude": 52.4347094}, {"waypoint": 0.5396365457045403, "street": "Mollstra\u00dfe", "longitude": 13.41651389, "latitude": 52.5262709}, {"waypoint": 0.3879390981621491, "street": "Mariendorfer Damm", "longitude": 13.38816757, "latitude": 52.43728069}, {"waypoint": 0.6775193016625732, "street": "Am Nordbahnhof", "longitude": 13.38470095, "latitude": 52.53169469}, {"waypoint": 0.26140980315696594, "street": "Julie-Wolfthorn-Stra\u00dfe", "longitude": 13.38634201, "latitude": 52.53298974}, {"waypoint": 0.3569113194180191, "street": "Julie-Wolfthorn-Stra\u00dfe", "longitude": 13.38643696, "latitude": 52.53290922}, {"waypoint": 0.4535855577594893, "street": "Zinnowitzer Stra\u00dfe", "longitude": 13.38363808, "latitude": 52.53184474}, {"waypoint": 0.5838423463288713, "street": "Hessische Stra\u00dfe", "longitude": 13.38050804, "latitude": 52.5285437}, {"waypoint": 0.18890318178033344, "street": "Invalidenstra\u00dfe", "longitude": 13.38161501, "latitude": 52.53022326}, {"waypoint": 0.003909613148279833, "street": "Invalidenstra\u00dfe", "longitude": 13.38110102, "latitude": 52.53007174}, {"waypoint": 0.27628854982601314, "street": "Invalidenstra\u00dfe", "longitude": 13.38459774, "latitude": 52.53101461}, {"waypoint": 0.26540838086096424, "street": "Invalidenstra\u00dfe", "longitude": 13.38440419, "latitude": 52.53086852}, {"waypoint": 0.7928146337442504, "street": "Invalidenstra\u00dfe", "longitude": 13.38720907, "latitude": 52.53159173}]